{
  "content": "label", 
  "features": [
    {
      "geometry": {
        "coordinates": [
          null, 
          null
        ], 
        "type": "Point"
      }, 
      "properties": {
        "bounding_box": null, 
        "id": "SMR", 
        "name": "San Marino"
      }, 
      "type": "Feature"
    }, 
    {
      "geometry": {
        "coordinates": [
          null, 
          null
        ], 
        "type": "Point"
      }, 
      "properties": {
        "bounding_box": null, 
        "id": "VAT", 
        "name": "Vatikan"
      }, 
      "type": "Feature"
    }, 
    {
      "geometry": {
        "coordinates": [
          null, 
          null
        ], 
        "type": "Point"
      }, 
      "properties": {
        "bounding_box": null, 
        "id": "TRST", 
        "name": "Freies Territorium Triest"
      }, 
      "type": "Feature"
    }, 
    {
      "geometry": {
        "coordinates": [
          43.086166, 
          12.301865
        ], 
        "type": "Point"
      }, 
      "properties": {
        "bounding_box": null, 
        "id": "ITA", 
        "name": "Italien"
      }, 
      "type": "Feature"
    }, 
    {
      "geometry": {
        "coordinates": [
          46.036676, 
          14.647536
        ], 
        "type": "Point"
      }, 
      "properties": {
        "bounding_box": null, 
        "id": "SVN", 
        "name": "Slovenien"
      }, 
      "type": "Feature"
    }, 
    {
      "geometry": {
        "coordinates": [
          43.844079, 
          21.063551
        ], 
        "type": "Point"
      }, 
      "properties": {
        "bounding_box": null, 
        "id": "YUG_SRB", 
        "name": "Jugoslawien"
      }, 
      "type": "Feature"
    }, 
    {
      "geometry": {
        "coordinates": [
          43.844079, 
          21.063551
        ], 
        "type": "Point"
      }, 
      "properties": {
        "bounding_box": null, 
        "id": "SRB+MNE", 
        "name": "Serbien und Montenegro"
      }, 
      "type": "Feature"
    }, 
    {
      "geometry": {
        "coordinates": [
          45.58487, 
          16.449293
        ], 
        "type": "Point"
      }, 
      "properties": {
        "bounding_box": null, 
        "id": "HRV", 
        "name": "Kroatien"
      }, 
      "type": "Feature"
    }, 
    {
      "geometry": {
        "coordinates": [
          44.199577, 
          17.844557
        ], 
        "type": "Point"
      }, 
      "properties": {
        "bounding_box": null, 
        "id": "BIH", 
        "name": "Bosnien und Herzegowina"
      }, 
      "type": "Feature"
    }, 
    {
      "geometry": {
        "coordinates": [
          null, 
          null
        ], 
        "type": "Point"
      }, 
      "properties": {
        "bounding_box": null, 
        "id": "MKD", 
        "name": "Mazedonien"
      }, 
      "type": "Feature"
    }, 
    {
      "geometry": {
        "coordinates": [
          44.349037, 
          18.888258
        ], 
        "type": "Point"
      }, 
      "properties": {
        "bounding_box": null, 
        "id": "SFY", 
        "name": "SFR Jugoslawien"
      }, 
      "type": "Feature"
    }, 
    {
      "geometry": {
        "coordinates": [
          44.349037, 
          18.888258
        ], 
        "type": "Point"
      }, 
      "properties": {
        "bounding_box": null, 
        "id": "YUG", 
        "name": "Jugoslawien"
      }, 
      "type": "Feature"
    }, 
    {
      "geometry": {
        "coordinates": [
          40.848332, 
          20.102158
        ], 
        "type": "Point"
      }, 
      "properties": {
        "bounding_box": null, 
        "id": "VR_ALB", 
        "name": "VR Albanien"
      }, 
      "type": "Feature"
    }, 
    {
      "geometry": {
        "coordinates": [
          40.848332, 
          20.102158
        ], 
        "type": "Point"
      }, 
      "properties": {
        "bounding_box": null, 
        "id": "ALB", 
        "name": "Albanien"
      }, 
      "type": "Feature"
    }
  ], 
  "type": "FeatureCollection"
}