{"content": "labels", "type": "FeatureCollection", "features": [{"geometry": {"type": "Point", "coordinates": [43.932247, 12.458205]}, "type": "Feature", "properties": {"bounding_box": null, "id": "SMR", "name": "San Marino"}}, {"geometry": {"type": "Point", "coordinates": [41.903505, 12.453188]}, "type": "Feature", "properties": {"bounding_box": null, "id": "VAT", "name": "Vatikan"}}, {"geometry": {"type": "Point", "coordinates": [45.670675, 13.811636]}, "type": "Feature", "properties": {"bounding_box": null, "id": "TRST", "name": "Freies Territorium Triest"}}, {"geometry": {"type": "Point", "coordinates": [43.086166, 12.301865]}, "type": "Feature", "properties": {"bounding_box": null, "id": "ITA", "name": "Italien"}}, {"geometry": {"type": "Point", "coordinates": [46.036676, 14.647536]}, "type": "Feature", "properties": {"bounding_box": null, "id": "SVN", "name": "Slovenien"}}, {"geometry": {"type": "Point", "coordinates": [43.844079, 21.063551]}, "type": "Feature", "properties": {"bounding_box": null, "id": "YUG_SRB", "name": "Jugoslawien"}}, {"geometry": {"type": "Point", "coordinates": [43.844079, 21.063551]}, "type": "Feature", "properties": {"bounding_box": null, "id": "SRB+MNE", "name": "Serbien und Montenegro"}}, {"geometry": {"type": "Point", "coordinates": [45.58487, 16.449293]}, "type": "Feature", "properties": {"bounding_box": null, "id": "HRV", "name": "Kroatien"}}, {"geometry": {"type": "Point", "coordinates": [44.199577, 17.844557]}, "type": "Feature", "properties": {"bounding_box": null, "id": "BIH", "name": "Bosnien und Herzegowina"}}, {"geometry": {"type": "Point", "coordinates": [41.634246, 21.726779]}, "type": "Feature", "properties": {"bounding_box": null, "id": "MKD", "name": "Mazedonien"}}, {"geometry": {"type": "Point", "coordinates": [44.349037, 18.888258]}, "type": "Feature", "properties": {"bounding_box": null, "id": "SFY", "name": "SFR Jugoslawien"}}, {"geometry": {"type": "Point", "coordinates": [44.349037, 18.888258]}, "type": "Feature", "properties": {"bounding_box": null, "id": "YUG", "name": "Jugoslawien"}}, {"geometry": {"type": "Point", "coordinates": [40.848332, 20.102158]}, "type": "Feature", "properties": {"bounding_box": null, "id": "ALB_PR", "name": "VR Albanien"}}, {"geometry": {"type": "Point", "coordinates": [40.848332, 20.102158]}, "type": "Feature", "properties": {"bounding_box": null, "id": "ALB", "name": "Albanien"}}, {"geometry": {"type": "Point", "coordinates": [54.228061, -4.531052]}, "type": "Feature", "properties": {"bounding_box": null, "id": "IMN", "name": "Isle of Man"}}, {"geometry": {"type": "Point", "coordinates": [52.303246, -1.257045]}, "type": "Feature", "properties": {"bounding_box": null, "id": "UK", "name": "Vereinigtes K\u00f6nigreich"}}, {"geometry": {"type": "Point", "coordinates": [53.108073, -7.80867]}, "type": "Feature", "properties": {"bounding_box": null, "id": "IRL_free", "name": "Irischer Freistaat"}}, {"geometry": {"type": "Point", "coordinates": [53.108073, -7.80867]}, "type": "Feature", "properties": {"bounding_box": null, "id": "IRL", "name": "Irland"}}, {"geometry": {"type": "Point", "coordinates": [35.912881, 14.401497]}, "type": "Feature", "properties": {"bounding_box": null, "id": "MLT", "name": "Malta"}}, {"geometry": {"type": "Point", "coordinates": [51.543421, 11.446213]}, "type": "Feature", "properties": {"bounding_box": null, "id": "DEUR", "name": "Deutsches Reich"}}, {"geometry": {"type": "Point", "coordinates": [47.807407, 14.519323]}, "type": "Feature", "properties": {"bounding_box": null, "id": "AUT", "name": "\u00d6sterreich"}}, {"geometry": {"type": "Point", "coordinates": [49.032257, 17.837194]}, "type": "Feature", "properties": {"bounding_box": null, "id": "CSSR", "name": "Tschechoslowakei"}}, {"geometry": {"type": "Point", "coordinates": [51.543421, 11.446213]}, "type": "Feature", "properties": {"bounding_box": null, "id": "WEIMREP", "name": "Weimarer Republik"}}, {"geometry": {"type": "Point", "coordinates": [52.685975, 8.478991]}, "type": "Feature", "properties": {"bounding_box": null, "id": "DEU_UK_occ", "name": "Britische BZ"}}, {"geometry": {"type": "Point", "coordinates": [49.715245, 10.263905]}, "type": "Feature", "properties": {"bounding_box": null, "id": "DEU_US_occ", "name": "Amerikanische BZ"}}, {"geometry": {"type": "Point", "coordinates": [48.550796, 8.659901]}, "type": "Feature", "properties": {"bounding_box": null, "id": "DEU_FR_occ", "name": "Franz\u00f6sische BZ"}}, {"geometry": {"type": "Point", "coordinates": [51.844066, 13.157018]}, "type": "Feature", "properties": {"bounding_box": null, "id": "DEU_CP_occ", "name": "Sowjetische BZ"}}, {"geometry": {"type": "Point", "coordinates": [49.426912, 6.91245]}, "type": "Feature", "properties": {"bounding_box": null, "id": "SAAR", "name": "Saarland"}}, {"geometry": {"type": "Point", "coordinates": [52.091323, 19.160124]}, "type": "Feature", "properties": {"bounding_box": null, "id": "POL_PR", "name": "VR Polen"}}, {"geometry": {"type": "Point", "coordinates": [51.844066, 13.157018]}, "type": "Feature", "properties": {"bounding_box": null, "id": "DDR", "name": "DDR"}}, {"geometry": {"type": "Point", "coordinates": [50.619644, 8.103307]}, "type": "Feature", "properties": {"bounding_box": null, "id": "BRD", "name": "BRD"}}, {"geometry": {"type": "Point", "coordinates": [47.02681, 14.761166]}, "type": "Feature", "properties": {"bounding_box": null, "id": "AUT_UK_occ", "name": "Britische BZ"}}, {"geometry": {"type": "Point", "coordinates": [47.9216, 13.404354]}, "type": "Feature", "properties": {"bounding_box": null, "id": "AUT_US_occ", "name": "Amerikanische BZ"}}, {"geometry": {"type": "Point", "coordinates": [47.202509, 11.020321]}, "type": "Feature", "properties": {"bounding_box": null, "id": "AUT_FR_occ", "name": "Franz\u00f6sische BZ"}}, {"geometry": {"type": "Point", "coordinates": [48.142002, 15.662045]}, "type": "Feature", "properties": {"bounding_box": null, "id": "AUT_CP_occ", "name": "Sowjetische BZ"}}, {"geometry": {"type": "Point", "coordinates": [47.172365, 19.264055]}, "type": "Feature", "properties": {"bounding_box": null, "id": "HUN_REP", "name": "Ungarische Republik"}}, {"geometry": {"type": "Point", "coordinates": [47.172365, 19.264055]}, "type": "Feature", "properties": {"bounding_box": null, "id": "VR_HUN", "name": "VR Ungarn"}}, {"geometry": {"type": "Point", "coordinates": [49.764781, 15.287004]}, "type": "Feature", "properties": {"bounding_box": null, "id": "CZE", "name": "Tschechische Republik"}}, {"geometry": {"type": "Point", "coordinates": [48.728811, 19.265416]}, "type": "Feature", "properties": {"bounding_box": null, "id": "SVK", "name": "Slowakei"}}, {"geometry": {"type": "Point", "coordinates": [47.172365, 19.264055]}, "type": "Feature", "properties": {"bounding_box": null, "id": "HUN", "name": "Ungarn"}}, {"geometry": {"type": "Point", "coordinates": [52.091323, 19.160124]}, "type": "Feature", "properties": {"bounding_box": null, "id": "POL", "name": "Polen"}}, {"geometry": {"type": "Point", "coordinates": [51.136552, 10.234393]}, "type": "Feature", "properties": {"bounding_box": null, "id": "DEU", "name": "Deutschland"}}, {"geometry": {"type": "Point", "coordinates": [40.303388, -3.884029]}, "type": "Feature", "properties": {"bounding_box": null, "id": "ESP", "name": "Spanien"}}, {"geometry": {"type": "Point", "coordinates": [40.303388, -3.884029]}, "type": "Feature", "properties": {"bounding_box": null, "id": "ESP_REP", "name": "Spanische Republik"}}, {"geometry": {"type": "Point", "coordinates": [40.001089, -8.058834]}, "type": "Feature", "properties": {"bounding_box": null, "id": "PRT", "name": "Portugal"}}, {"geometry": {"type": "Point", "coordinates": [40.001089, -8.058834]}, "type": "Feature", "properties": {"bounding_box": null, "id": "PRT_KNG", "name": "K\u00f6nigreich Portugal"}}, {"geometry": {"type": "Point", "coordinates": [40.001089, -8.058834]}, "type": "Feature", "properties": {"bounding_box": null, "id": "PRT_REP", "name": "Portugiesische Republik"}}, {"geometry": {"type": "Point", "coordinates": [42.543282, 1.553727]}, "type": "Feature", "properties": {"bounding_box": null, "id": "AND", "name": "Andorra"}}, {"geometry": {"type": "Point", "coordinates": [36.138475, -5.347937]}, "type": "Feature", "properties": {"bounding_box": null, "id": "GIB", "name": "Gibraltar"}}, {"geometry": {"type": "Point", "coordinates": [56.102935, 9.060387]}, "type": "Feature", "properties": {"bounding_box": null, "id": "DNK", "name": "D\u00e4nemark"}}, {"geometry": {"type": "Point", "coordinates": [62.614651, 25.511331]}, "type": "Feature", "properties": {"bounding_box": null, "id": "FIN", "name": "Finnland"}}, {"geometry": {"type": "Point", "coordinates": [62.006274, 26.924157]}, "type": "Feature", "properties": {"bounding_box": null, "id": "FIN+Karelia", "name": "Finnland"}}, {"geometry": {"type": "Point", "coordinates": [62.006274, 26.924157]}, "type": "Feature", "properties": {"bounding_box": null, "id": "FIN+Karelia_Grandduchy", "name": "Grhzt. Finnland"}}, {"geometry": {"type": "Point", "coordinates": [62.140304, -7.004322]}, "type": "Feature", "properties": {"bounding_box": null, "id": "FRO", "name": "F\u00e4roer Inseln"}}, {"geometry": {"type": "Point", "coordinates": [68.633867, -43.125011]}, "type": "Feature", "properties": {"bounding_box": null, "id": "GRL", "name": "Gr\u00f6nland"}}, {"geometry": {"type": "Point", "coordinates": [64.890271, -18.613919]}, "type": "Feature", "properties": {"bounding_box": null, "id": "ISL", "name": "Island"}}, {"geometry": {"type": "Point", "coordinates": [60.603371, 9.126305]}, "type": "Feature", "properties": {"bounding_box": null, "id": "NOR", "name": "Norwegen"}}, {"geometry": {"type": "Point", "coordinates": [78.582972, 16.02538]}, "type": "Feature", "properties": {"bounding_box": null, "id": "SVJ", "name": "Svalbard"}}, {"geometry": {"type": "Point", "coordinates": [63.213048, 14.852451]}, "type": "Feature", "properties": {"bounding_box": null, "id": "SWE", "name": "Schweden"}}, {"geometry": {"type": "Point", "coordinates": [61.212307, 12.64193]}, "type": "Feature", "properties": {"bounding_box": null, "id": "SWNO", "name": "Schweden-Norwegen"}}, {"geometry": {"type": "Point", "coordinates": [45.900057, 24.74722]}, "type": "Feature", "properties": {"bounding_box": null, "id": "ROU", "name": "Rum\u00e4nien"}}, {"geometry": {"type": "Point", "coordinates": [45.900057, 24.74722]}, "type": "Feature", "properties": {"bounding_box": null, "id": "ROU_PR", "name": "VR Rum\u00e4nien"}}, {"geometry": {"type": "Point", "coordinates": [42.765681, 25.153714]}, "type": "Feature", "properties": {"bounding_box": null, "id": "BGR", "name": "Bulgarien"}}, {"geometry": {"type": "Point", "coordinates": [42.765681, 25.153714]}, "type": "Feature", "properties": {"bounding_box": null, "id": "BGR_PR", "name": "VR Bulgarien"}}, {"geometry": {"type": "Point", "coordinates": [35.024543, 33.087967]}, "type": "Feature", "properties": {"bounding_box": null, "id": "CYP", "name": "Zypern"}}, {"geometry": {"type": "Point", "coordinates": [38.972949, 35.401873]}, "type": "Feature", "properties": {"bounding_box": null, "id": "TUR", "name": "T\u00fcrkei"}}, {"geometry": {"type": "Point", "coordinates": [39.596325, 21.420487]}, "type": "Feature", "properties": {"bounding_box": null, "id": "GRC", "name": "Griechenland"}}, {"geometry": {"type": "Point", "coordinates": [53.221566, 27.531161]}, "type": "Feature", "properties": {"bounding_box": null, "id": "BLR", "name": "Wei\u00dfrussland"}}, {"geometry": {"type": "Point", "coordinates": [58.849326, 25.314944]}, "type": "Feature", "properties": {"bounding_box": null, "id": "EST", "name": "Estland"}}, {"geometry": {"type": "Point", "coordinates": [55.592367, 23.776859]}, "type": "Feature", "properties": {"bounding_box": null, "id": "LTU", "name": "Litauen"}}, {"geometry": {"type": "Point", "coordinates": [56.970483, 25.864261]}, "type": "Feature", "properties": {"bounding_box": null, "id": "LVA", "name": "Lettland"}}, {"geometry": {"type": "Point", "coordinates": [47.632673, 28.305184]}, "type": "Feature", "properties": {"bounding_box": null, "id": "MDA", "name": "Moldawien"}}, {"geometry": {"type": "Point", "coordinates": [55.023999, 44.537997]}, "type": "Feature", "properties": {"bounding_box": null, "id": "RUS", "name": "Russland"}}, {"geometry": {"type": "Point", "coordinates": [49.178686, 31.557138]}, "type": "Feature", "properties": {"bounding_box": null, "id": "UKR", "name": "Ukraine"}}, {"geometry": {"type": "Point", "coordinates": [53.93189, 39.510708]}, "type": "Feature", "properties": {"bounding_box": null, "id": "CCCP", "name": "Sowjetunion"}}, {"geometry": {"type": "Point", "coordinates": [50.632554, 4.84343]}, "type": "Feature", "properties": {"bounding_box": null, "id": "BEL", "name": "Belgien"}}, {"geometry": {"type": "Point", "coordinates": [46.828223, 8.097867]}, "type": "Feature", "properties": {"bounding_box": null, "id": "CHE", "name": "Schweiz"}}, {"geometry": {"type": "Point", "coordinates": [46.876563, 2.510119]}, "type": "Feature", "properties": {"bounding_box": null, "id": "FRA", "name": "Frankreich"}}, {"geometry": {"type": "Point", "coordinates": [47.142998, 9.553556]}, "type": "Feature", "properties": {"bounding_box": null, "id": "LIE", "name": "Liechtenstein"}}, {"geometry": {"type": "Point", "coordinates": [49.784781, 6.084623]}, "type": "Feature", "properties": {"bounding_box": null, "id": "LUX", "name": "Luxemburg"}}, {"geometry": {"type": "Point", "coordinates": [43.735674, 7.42489]}, "type": "Feature", "properties": {"bounding_box": null, "id": "MCO", "name": "Monaco"}}, {"geometry": {"type": "Point", "coordinates": [50.732544, 5.990712]}, "type": "Feature", "properties": {"bounding_box": null, "id": "MORS", "name": "Neutral-Moresnet"}}, {"geometry": {"type": "Point", "coordinates": [52.192792, 5.630933]}, "type": "Feature", "properties": {"bounding_box": null, "id": "NLD", "name": "Niederlande"}}]}