{"content": "labels", "type": "FeatureCollection", "features": [{"geometry": {"type": "Point", "coordinates": [40.848332, 20.102158]}, "type": "Feature", "properties": {"bounding_box": null, "id": "ALB", "prio": "3","name": "Albania"}},{"geometry": {"type": "Point", "coordinates": [40.848332, 20.102158]}, "type": "Feature", "properties": {"bounding_box": null, "id": "ALB_PR", "prio": "3","name": "PR Albania"}},{"geometry": {"type": "Point", "coordinates": [42.543282, 1.553727]}, "type": "Feature", "properties": {"bounding_box": null, "id": "AND", "prio": "1","name": "Andorra"}},{"geometry": {"type": "Point", "coordinates": [47.807407, 14.519323]}, "type": "Feature", "properties": {"bounding_box": null, "id": "AUT", "prio": "4","name": "Austria"}},{"geometry": {"type": "Point", "coordinates": [48.142002, 15.662045]}, "type": "Feature", "properties": {"bounding_box": null, "id": "AUT_CP_occ", "prio": "2","name": "Belgium"}},{"geometry": {"type": "Point", "coordinates": [42.765681, 25.153714]}, "type": "Feature", "properties": {"bounding_box": null, "id": "BGR", "prio": "3","name": "Bulgaria"}},{"geometry": {"type": "Point", "coordinates": [42.765681, 25.153714]}, "type": "Feature", "properties": {"bounding_box": null, "id": "BGR_PR", "prio": "3","name": "PR Bulgaria"}},{"geometry": {"type": "Point", "coordinates": [44.199577, 17.844557]}, "type": "Feature", "properties": {"bounding_box": null, "id": "BIH", "prio": "2","name": "Bosnia and Herzegovina"}},{"geometry": {"type": "Point", "coordinates": [53.221566, 27.531161]}, "type": "Feature", "properties": {"bounding_box": null, "id": "BLR", "prio": "3","name": "Belarus"}},{"geometry": {"type": "Point", "coordinates": [50.619644, 8.103307]}, "type": "Feature", "properties": {"bounding_box": null, "id": "BRD", "prio": "4","name": "West Germany"}},{"geometry": {"type": "Point", "coordinates": [53.93189, 39.510708]}, "type": "Feature", "properties": {"bounding_box": null, "id": "CCCP", "prio": "5","name": "Soviet Union"}},{"geometry": {"type": "Point", "coordinates": [46.828223, 8.097867]}, "type": "Feature", "properties": {"bounding_box": null, "id": "CHE", "prio": "3","name": "Switzerland"}},{"geometry": {"type": "Point", "coordinates": [49.032257, 17.837194]}, "type": "Feature", "properties": {"bounding_box": null, "id": "CSSR", "prio": "5","name": "Czechoslovakia"}},{"geometry": {"type": "Point", "coordinates": [35.024543, 33.087967]}, "type": "Feature", "properties": {"bounding_box": null, "id": "CYP", "prio": "1","name": "Cyprus"}},{"geometry": {"type": "Point", "coordinates": [49.764781, 15.287004]}, "type": "Feature", "properties": {"bounding_box": null, "id": "CZE", "prio": "3","name": "Czech Republic"}},{"geometry": {"type": "Point", "coordinates": [51.844066, 13.157018]}, "type": "Feature", "properties": {"bounding_box": null, "id": "DDR", "prio": "5","name": "East Germany"}},{"geometry": {"type": "Point", "coordinates": [51.136552, 10.234393]}, "type": "Feature", "properties": {"bounding_box": null, "id": "DEU", "prio": "5","name": "Germany"}},{"geometry": {"type": "Point", "coordinates": [51.136552, 10.234393]}, "type": "Feature", "properties": {"bounding_box": null, "id": "DEU_occ", "prio": "5","name": "Occupied Germany"}},{"geometry": {"type": "Point", "coordinates": [51.543421, 11.446213]}, "type": "Feature", "properties": {"bounding_box": null, "id": "DEUR", "prio": "5","name": "German Empire"}},{"geometry": {"type": "Point", "coordinates": [56.102935, 9.060387]}, "type": "Feature", "properties": {"bounding_box": null, "id": "DNK", "prio": "3","name": "Denmark"}},{"geometry": {"type": "Point", "coordinates": [40.303388, -3.884029]}, "type": "Feature", "properties": {"bounding_box": null, "id": "ESP", "prio": "4","name": "Spain"}},{"geometry": {"type": "Point", "coordinates": [40.303388, -3.884029]}, "type": "Feature", "properties": {"bounding_box": null, "id": "ESP_REP", "prio": "4","name": "Spanish Republic"}},{"geometry": {"type": "Point", "coordinates": [58.849326, 25.314944]}, "type": "Feature", "properties": {"bounding_box": null, "id": "EST", "prio": "3","name": "Estonia"}},{"geometry": {"type": "Point", "coordinates": [62.614651, 25.511331]}, "type": "Feature", "properties": {"bounding_box": null, "id": "FIN", "prio": "4","name": "Finland"}},{"geometry": {"type": "Point", "coordinates": [62.006274, 26.924157]}, "type": "Feature", "properties": {"bounding_box": null, "id": "FIN+Karelia", "prio": "4","name": "Finland"}},{"geometry": {"type": "Point", "coordinates": [62.006274, 26.924157]}, "type": "Feature", "properties": {"bounding_box": null, "id": "FIN+Karelia_Grandduchy", "prio": "4","name": "Grand Duchy of Finland"}},{"geometry": {"type": "Point", "coordinates": [46.876563, 2.510119]}, "type": "Feature", "properties": {"bounding_box": null, "id": "FRA", "prio": "5","name": "France"}},{"geometry": {"type": "Point", "coordinates": [62.140304, -7.004322]}, "type": "Feature", "properties": {"bounding_box": null, "id": "FRO", "prio": "1","name": "F\u00e4roer Islands"}},{"geometry": {"type": "Point", "coordinates": [36.138475, -5.347937]}, "type": "Feature", "properties": {"bounding_box": null, "id": "GIB", "prio": "1","name": "Gibraltar"}},{"geometry": {"type": "Point", "coordinates": [39.596325, 21.420487]}, "type": "Feature", "properties": {"bounding_box": null, "id": "GRC", "prio": "3","name": "Greece"}},{"geometry": {"type": "Point", "coordinates": [68.633867, -43.125011]}, "type": "Feature", "properties": {"bounding_box": null, "id": "GRL", "prio": "1","name": "Greenland"}},{"geometry": {"type": "Point", "coordinates": [45.58487, 16.449293]}, "type": "Feature", "properties": {"bounding_box": null, "id": "HRV", "prio": "3","name": "Croatia"}},{"geometry": {"type": "Point", "coordinates": [47.172365, 19.264055]}, "type": "Feature", "properties": {"bounding_box": null, "id": "HUN", "prio": "3","name": "Hungary"}},{"geometry": {"type": "Point", "coordinates": [47.172365, 19.264055]}, "type": "Feature", "properties": {"bounding_box": null, "id": "HUN_REP", "prio": "3","name": "Hungarian Republik"}},{"geometry": {"type": "Point", "coordinates": [54.228061, -4.531052]}, "type": "Feature", "properties": {"bounding_box": null, "id": "IMN", "prio": "1","name": "Isle of Man"}},{"geometry": {"type": "Point", "coordinates": [53.108073, -7.80867]}, "type": "Feature", "properties": {"bounding_box": null, "id": "IRL", "prio": "3","name": "Ireland"}},{"geometry": {"type": "Point", "coordinates": [53.108073, -7.80867]}, "type": "Feature", "properties": {"bounding_box": null, "id": "IRL_free", "prio": "3","name": "Irish Free State"}},{"geometry": {"type": "Point", "coordinates": [64.890271, -18.613919]}, "type": "Feature", "properties": {"bounding_box": null, "id": "ISL", "prio": "3","name": "Iceland"}},{"geometry": {"type": "Point", "coordinates": [43.086166, 12.301865]}, "type": "Feature", "properties": {"bounding_box": null, "id": "ITA", "prio": "5","name": "Italy"}},{"geometry": {"type": "Point", "coordinates": [47.142998, 9.553556]}, "type": "Feature", "properties": {"bounding_box": null, "id": "LIE", "prio": "1","name": "Liechtenstein"}},{"geometry": {"type": "Point", "coordinates": [55.592367, 23.776859]}, "type": "Feature", "properties": {"bounding_box": null, "id": "LTU", "prio": "3","name": "Lithuania"}},{"geometry": {"type": "Point", "coordinates": [49.784781, 6.084623]}, "type": "Feature", "properties": {"bounding_box": null, "id": "LUX", "prio": "1","name": "Luxemburg"}},{"geometry": {"type": "Point", "coordinates": [56.970483, 25.864261]}, "type": "Feature", "properties": {"bounding_box": null, "id": "LVA", "prio": "3","name": "Latvia"}},{"geometry": {"type": "Point", "coordinates": [43.735674, 7.42489]}, "type": "Feature", "properties": {"bounding_box": null, "id": "MCO", "prio": "1","name": "Monaco"}},{"geometry": {"type": "Point", "coordinates": [47.632673, 28.305184]}, "type": "Feature", "properties": {"bounding_box": null, "id": "MDA", "prio": "3","name": "Moldavia"}},{"geometry": {"type": "Point", "coordinates": [41.634246, 21.726779]}, "type": "Feature", "properties": {"bounding_box": null, "id": "MKD", "prio": "3","name": "Macedonia"}},{"geometry": {"type": "Point", "coordinates": [35.912881, 14.401497]}, "type": "Feature", "properties": {"bounding_box": null, "id": "MLT", "prio": "1","name": "Malta"}},{"geometry": {"type": "Point", "coordinates": [50.732544, 5.990712]}, "type": "Feature", "properties": {"bounding_box": null, "id": "MORS", "prio": "1","name": "Neutral-Moresnet"}},{"geometry": {"type": "Point", "coordinates": [52.192792, 5.630933]}, "type": "Feature", "properties": {"bounding_box": null, "id": "NLD", "prio": "3","name": "the Netherlands"}},{"geometry": {"type": "Point", "coordinates": [60.603371, 9.126305]}, "type": "Feature", "properties": {"bounding_box": null, "id": "NOR", "prio": "3","name": "Norway"}},{"geometry": {"type": "Point", "coordinates": [52.091323, 19.160124]}, "type": "Feature", "properties": {"bounding_box": null, "id": "POL", "prio": "4","name": "Poland"}},{"geometry": {"type": "Point", "coordinates": [52.091323, 19.160124]}, "type": "Feature", "properties": {"bounding_box": null, "id": "POL_PR", "prio": "4","name": "PR Poland"}},{"geometry": {"type": "Point", "coordinates": [40.001089, -8.058834]}, "type": "Feature", "properties": {"bounding_box": null, "id": "PRT", "prio": "3","name": "Portugal"}},{"geometry": {"type": "Point", "coordinates": [40.001089, -8.058834]}, "type": "Feature", "properties": {"bounding_box": null, "id": "PRT_KNG", "prio": "3","name": "Kingdom of Portugal"}},{"geometry": {"type": "Point", "coordinates": [40.001089, -8.058834]}, "type": "Feature", "properties": {"bounding_box": null, "id": "PRT_REP", "prio": "3","name": "Portuguese Republik"}},{"geometry": {"type": "Point", "coordinates": [45.900057, 24.74722]}, "type": "Feature", "properties": {"bounding_box": null, "id": "ROU", "prio": "4","name": "Romania"}},{"geometry": {"type": "Point", "coordinates": [45.900057, 24.74722]}, "type": "Feature", "properties": {"bounding_box": null, "id": "ROU_PR", "prio": "4","name": "SR Romania"}},{"geometry": {"type": "Point", "coordinates": [55.023999, 44.537997]}, "type": "Feature", "properties": {"bounding_box": null, "id": "RUS", "prio": "5","name": "Russia"}},{"geometry": {"type": "Point", "coordinates": [49.426912, 6.91245]}, "type": "Feature", "properties": {"bounding_box": null, "id": "SAAR", "prio": "2","name": "Saar"}},{"geometry": {"type": "Point", "coordinates": [44.349037, 18.888258]}, "type": "Feature", "properties": {"bounding_box": null, "id": "SFY", "prio": "5","name": "SFR Yugoslavia"}},{"geometry": {"type": "Point", "coordinates": [43.932247, 12.458205]}, "type": "Feature", "properties": {"bounding_box": null, "id": "SMR", "prio": "1","name": "San Marino"}},{"geometry": {"type": "Point", "coordinates": [43.844079, 21.063551]}, "type": "Feature", "properties": {"bounding_box": null, "id": "SRB+MNE", "prio": "3","name": "Serbia and Montenegro"}},{"geometry": {"type": "Point", "coordinates": [78.582972, 16.02538]}, "type": "Feature", "properties": {"bounding_box": null, "id": "SVJ", "prio": "1","name": "Svalbard"}},{"geometry": {"type": "Point", "coordinates": [48.728811, 19.265416]}, "type": "Feature", "properties": {"bounding_box": null, "id": "SVK", "prio": "3","name": "Slovakia"}},{"geometry": {"type": "Point", "coordinates": [46.036676, 14.647536]}, "type": "Feature", "properties": {"bounding_box": null, "id": "SVN", "prio": "3","name": "Slovenia"}},{"geometry": {"type": "Point", "coordinates": [63.213048, 14.852451]}, "type": "Feature", "properties": {"bounding_box": null, "id": "SWE", "prio": "3","name": "Sweden"}},{"geometry": {"type": "Point", "coordinates": [61.212307, 12.64193]}, "type": "Feature", "properties": {"bounding_box": null, "id": "SWNO", "prio": "4","name": "Sweden-Norway"}},{"geometry": {"type": "Point", "coordinates": [45.670675, 13.811636]}, "type": "Feature", "properties": {"bounding_box": null, "id": "TRST", "prio": "1","name": "Free State of Triest"}},{"geometry": {"type": "Point", "coordinates": [38.972949, 35.401873]}, "type": "Feature", "properties": {"bounding_box": null, "id": "TUR", "prio": "4","name": "Turkey"}},{"geometry": {"type": "Point", "coordinates": [52.303246, -1.257045]}, "type": "Feature", "properties": {"bounding_box": null, "id": "UK", "prio": "5","name": "United Kingdom"}},{"geometry": {"type": "Point", "coordinates": [49.178686, 31.557138]}, "type": "Feature", "properties": {"bounding_box": null, "id": "UKR", "prio": "4","name": "Ukraine"}},{"geometry": {"type": "Point", "coordinates": [41.903505, 12.453188]}, "type": "Feature", "properties": {"bounding_box": null, "id": "VAT", "prio": "1","name": "Vatican"}},{"geometry": {"type": "Point", "coordinates": [47.172365, 19.264055]}, "type": "Feature", "properties": {"bounding_box": null, "id": "HUN_PR", "prio": "4","name": "PR Hungary"}},{"geometry": {"type": "Point", "coordinates": [51.543421, 11.446213]}, "type": "Feature", "properties": {"bounding_box": null, "id": "WEIMREP", "prio": "5","name": "Weimar Republic"}},{"geometry": {"type": "Point", "coordinates": [44.349037, 18.888258]}, "type": "Feature", "properties": {"bounding_box": null, "id": "YUG", "prio": "4","name": "Yugoslavia"}},{"geometry": {"type": "Point", "coordinates": [43.844079, 21.063551]}, "type": "Feature", "properties": {"bounding_box": null, "id": "YUG_SRB", "prio": "4","name": "Yugoslavia"}}]}